[
  {
  "name": "Россия",
  "code": "RU",
  "img": "ru.png",
  "consulates": [
                  {
                  "city": " Киев",
                  "address": "01011, г.Киев, ул.Кутузова, 8",
                  "e-mail": "consulatekiev@gmail.com",
                  "phone": "(044) 284-68-16",
                  "latitude": 50.001243,
                  "longitude": 36.249808
                  },
                  {
                  "city": "Харьков",
                  "address": "61024, Украина, г.Харьков, ул.Ольминского, 22",
                  "e-mail": "consul@megacom.ua",
                  "phone": "(057)700-00-56,(057)715-79-97",
                  "latitude": 50.001243,
                  "longitude": 36.249808
                  },
                  {
                  "city": "Одесса",
                  "address": "65009, Украина, г.Одесса, ул.Гагаринское плато, 14",
                  "e-mail": "gencon@odessa.tv",
                  "phone": "+38-048784-15-42",
                  "latitude": 30.00023,
                  "longitude": 50.0024
                  },
                  {
                  "city": "Львов",
                  "address": "79017, Украина, г.Львов, ул.Левицкого, 95",
                  "e-mail": "Konsrus@lviv.farlep.net",
                  "phone": "+38(032)244-25-25",
                  "latitude": 30.0002,
                  "longitude": 50.0024
                  }
                  ]
  },
  {
  "name": "Польша",
  "code": "PL",
  "img": "pl.png",
  "consulates": [
                 {
                 "city": " Киев",
                 "address": "01030, г. Киев, ул. Б.Хмельницького, 60",
                 "phone": "(+38 044) 284-00-33, 284-00-35",
                 "e-mail": "konsulat@polska.com.ua",
                 "latitude": 50.44723,
                 "longitude": 30.50515
                 },
                 {
                 "city": "Харьков",
                 "address": "61002, г. Харков, ул. Артема, 16",
                 "phone": "(+38 057) 75-78-801 (цiлодобово)",
                 "e-mail": "kgrp@kharkov.ukrtel.net",
                 "latitude": 50.00243,
                 "longitude": 36.24081
                 },
                 {
                 "city": "Львов",
                 "address": "79011 г. Львов, вул. Ивана Франка, 110",
                 "phone": "(+38 0322) 97-08-61/62/64",
                 "e-mail": "konsulat@mail.lviv.ua",
                 "latitude": 49.82654,
                 "longitude": 24.03334
                 },
                 {
                 "city": "Луцк",
                 "address": "43061, г. Луцк, ул. Кафедральная, 7",
                 "phone": "(+38 0332) 77-06-10/11/12",
                 "e-mail": "konsulluck@utel.net.ua",
                 "latitude": 50.73819,
                 "longitude": 25.32123
                 },
                 {
                 "city": "Одесса",
                 "address": "65062, г. Одесса, ул. Успенськая, 2",
                 "phone": "(+38 048) 722-88-99, 722-56-96, 722-60-03",
                 "e-mail": "konsul.pl@kgrp.odessa.ua",
                 "latitude": 46.47536,
                 "longitude": 30.75359
                 }
                 ],
  "requirements": [
                  {
                  "name": "Загранпаспорт",
                  "value": "Оригинал и копия* первого разворота (там, где подпись и фотография). Если у вас больше одного ЗП (такое бывает и разрешается) - необходимо предоставлять все имеющиеся у вас ЗП. Если кроме действующего ЗП у вас остался предыдущий, уже аннулированный в ОВИРе ЗП - его также крайне желательно показать в консульстве, особенно если в нем остались визы и поездки за границу, особенно в Шенгенскую зону. Это будет дополнительной аргументацией в пользу вашей благонадежности."
                  },
                  {
                  "name": "Анкета",
                  "value": "1шт"
                  },
                  {
                  "name": "Фотография",
                  "value": "1 шт. Размер фотографии - 3,5х4,5 см, размер головы на фотографии - от макушки до подбородка от 3,2 до 3,6 мм. Выдержать эти размеры очень важно, в противном случае вашу фотографию могут не принять и придется в спешке делать новую, или ещё хуже - не получится сдать документы в назначенный день и проходить всю процедуру записи и ожидания заново."
                  },
                  {
                  "name": "Копия* заполненных страниц из украинского загранпаспорта",
                  "value": "Обязательно - страницы 1-3, а также страницы со штампами о браке, прописке/выписке и о выдаче/аннулировании загранпаспортов).\n Без этих документов ваше заявление на получение визы просто не будет рассмотрено (документы не будут приняты и вас попросят донести недостающие бумаги."
                  },
                  {
                  "name": "Подтверждение цели поездки",
                  "value": "В зависимости от цели вашей поездки в Польшу, вы можете быть приглашены: \n 1. Вашим польским бизнес-партнером - польской фирмой или польским предпринимателем (это будет бизнес-виза или, другими словами, виза с целью поездки \"хозяйственная деятельность\"); \n 2. Вашим родственником или знакомым (гостевая виза, или виза с целью поездки \"частная\"); 3. Гостиницей/отелем, номер в котором вам надо будет забронировать и оплатить заранее, до дня подачи вашей заявки на получение визы (это будет туристическая виза)."
                  },
                  {
                  "name": "Подтверждение финансового обеспечения поездки",
                  "value": "Чтобы подтвердить консульству вашу платежеспособность, вам необходимо будет предоставить: \n 1. Справку из банка о том, что по состоянию на такое-то число на вашем счету числится такая-то сумма; \nили \n 2. Оригиналы и копии дорожных чеков, купленных на ваше имя. \n Сумма должна быть представлена из расчета 100 злотых (примерно 35-40 евро) на 1 сутки пребывания в Польше, но не меньше 500 злотых (примерно 200 евро) в случае, если поездка предполагается на срок не более 3-х дней. Сумму можно показывать в любой валюте, не обязательно только в евро. Например, можно предоставить справку из банка об остатке средств в гривне или купить дорожные чеки, номинированные в долларах."
                  },
                  {
                  "name": "Подтверждение трудоустройства в Украине",
                  "value": "Этот факт подтверждается: \n 1. Справкой с места работы (в справке необходимо указать с какой даты вы работаете в компании, в какой должности, форма трудоустройства - основное место работы или по совместительству, а также указать помесячно вашу зарплату за последние полгода) \n2. Копией* всех страниц трудовой книжки, заверенной печатью и подписью предприятия, на котором вы в данный момент работаете. \n3. Нотариально заверенными копиями свидетельства о регистрации и свидетельства налогоплательщика предприятия, на котором вы в данный момент работаете. Это необходимо, чтобы показать, что предприятие - работающее, а не просто числится на бумаге."
                  },
                  {
                  "name": "Подтверждение семейных связей в Украине",
                  "value": "Всегда желательно предоставлять обычные копии* документов, по которым видно ваше семейное положение: \n 1. Свидетельство о браке; \n 2. Свидетельство о рождении ребенка. \nОсобенно это важно, если вы едете семьей или вас приглашает член вашей семьи (например, вас может приглашать мама, родившаяся в Украине, но сейчас проживающая в Польше)."
                  },
                  {
                  "name": "Страховка",
                  "value": "Страховая сумма должна быть 30000 евро. Страховая компания, выписавшая вам страховку, должна входить в список аккредитованных страховых компаний, который всегда можно найти на сайте соответствующего консульского учреждения."
                  }
                  ],
  
  "advice": "Копии всех документов необходимо выполнять на листах формата А4, даже если вы делаете копию с разворота паспорта или трудовой книжки - не обрезайте лист до формата А5: это не принято в делопроизводстве, а кроме того, обрезанные листы усложняют работу сотрудников консульства, что может негативно повлиять на решение об открытии вам визы. Кроме того, если копии делаются с документов формата А5 (паспорта, трудовые книжки и т.п.), располагайте копию каждого последующего разворота под копией предыдущего разворота и делайте копии с двух сторон одного листа, т.е. если например имеется 3 разворота, то делайте копию 3-го разворота не на 2-м листе формата А4, а на обратной стороне уже начатого листа. Кроме того, копии должны быть качественными, легкочитаемыми, а листы – не помятыми."
  },
  {
  "name": "Венгрия",
  "code": "HU",
  "img": "hu.png",
  "consulates": [
                 {
                 "city": " Киев",
                 "address": "blah blah",
                 "latitude": 30.00023,
                 "longitude": 50.0024
                 },
                 {
                 "city": " Киев",
                 "address": "blah blah",
                 "latitude": 30.00023,
                 "longitude": 50.0024
                 }
                 ]
  },
  {
  "name": "Молдавия",
  "code": "MD",
  "img": "md.png",
  "consulates": [
                 {
                 "city": " Киев",
                 "address": "blah blah",
                 "latitude": 30.00023,
                 "longitude": 50.0024
                 },
                 {
                 "city": " Киев",
                 "address": "blah blah",
                 "latitude": 30.00023,
                 "longitude": 50.0024
                 }
                 ]
  },
  {
  "name": "Белорусия",
  "code": "BY",
  "img": "by.png",
  "consulates": [
                 {
                 "city": " Киев",
                 "address": "blah blah",
                 "latitude": 30.00023,
                 "longitude": 50.0024
                 },
                 {
                 "city": " Киев",
                 "address": "blah blah",
                 "latitude": 30.00023,
                 "longitude": 50.0024
                 }
                 ]
  },
  {
  "name": "Румыния",
  "code": "RM",
  "img": "rm.png",
  "consulates": [
                 {
                 "city": " Киев",
                 "address": "blah blah",
                 "latitude": 30.00023,
                 "longitude": 50.0024
                 },
                 {
                 "city": " Киев",
                 "address": "blah blah",
                 "latitude": 30.00023,
                 "longitude": 50.0024
                 }
                 ]
  },
  {
  "name": "Словакия",
  "code": "SL",
  "img": "sl.png",
  "consulates": [
                 {
                 "city": " Киев",
                 "address": "blah blah",
                 "latitude": 30.00023,
                 "longitude": 50.0024
                 },
                 {
                 "city": " Киев",
                 "address": "blah blah",
                 "latitude": 30.00023,
                 "longitude": 50.0024
                 }
                 ]
  },
  {
  "name": "Египет",
  "code": "EG",
  "img": "eg.png",
  "consulates": [
                 {
                 "city": " Киев",
                 "address": "blah blah",
                 "latitude": 30.00023,
                 "longitude": 50.0024
                 },
                 {
                 "city": " Киев",
                 "address": "blah blah",
                 "latitude": 30.00023,
                 "longitude": 50.0024
                 }
                 ]
  },
  {
  "name": "Германия",
  "code": "DE",
  "img": "de.png",
  "consulates": [
                 {
                 "city": " Киев",
                 "address": "blah blah",
                 "latitude": 30.00023,
                 "longitude": 50.0024
                 },
                 {
                 "city": " Киев",
                 "address": "blah blah",
                 "latitude": 30.00023,
                 "longitude": 50.0024
                 }
                 ]
  },
  {
  "name": "Греция",
  "code": "GR",
  "img": "gr.png",
  "consulates": [
                 {
                 "city": " Киев",
                 "address": "blah blah",
                 "latitude": 30.00023,
                 "longitude": 50.0024
                 },
                 {
                 "city": " Киев",
                 "address": "blah blah",
                 "latitude": 30.00023,
                 "longitude": 50.0024
                 }
                 ]
  },
  {
  "name": "Чехия",
  "code": "CZ",
  "img": "cz.png",
  "consulates": [
                 {
                 "city": " Киев",
                 "address": "blah blah",
                 "latitude": 30.00023,
                 "longitude": 50.0024
                 },
                 {
                 "city": " Киев",
                 "address": "blah blah",
                 "latitude": 30.00023,
                 "longitude": 50.0024
                 }
                 ]
  },
  {
  "name": "Хорватия",
  "code": "HW",
  "img": "hw.png",
  "consulates": [
                 {
                 "city": " Киев",
                 "address": "blah blah",
                 "latitude": 30.00023,
                 "longitude": 50.0024
                 },
                 {
                 "city": " Киев",
                 "address": "blah blah",
                 "latitude": 30.00023,
                 "longitude": 50.0024
                 }
                 ]
  },
  {
  "name": "Черногорье",
  "code": "CS",
  "img": "cs.png",
  "consulates": [
                 {
                 "city": " Киев",
                 "address": "blah blah",
                 "latitude": 30.00023,
                 "longitude": 50.0024
                 },
                 {
                 "city": " Киев",
                 "address": "blah blah",
                 "latitude": 30.00023,
                 "longitude": 50.0024
                 }
                 ]
  },
  {
  "name": "Австрия",
  "code": "AT",
  "img": "at.png"
  },
  {
  "name": "Франция",
  "code": "FR",
  "img": "fr.png",
  "consulates": [
                 {
                 "city": " Киев",
                 "address": "blah blah",
                 "latitude": 30.00023,
                 "longitude": 50.0024
                 },
                 {
                 "city": " Киев",
                 "address": "blah blah",
                 "latitude": 30.00023,
                 "longitude": 50.0024
                 }
                 ]
  },
  {
  "name": "Словения",
  "code": "SI",
  "img": "si.png",
  "consulates": [
                 {
                 "city": " Киев",
                 "address": "blah blah",
                 "latitude": 30.00023,
                 "longitude": 50.0024
                 },
                 {
                 "city": " Киев",
                 "address": "blah blah",
                 "latitude": 30.00023,
                 "longitude": 50.0024
                 }
                 ]
  },
  {
  "name": "Испания",
  "code": "ES",
  "img": "es.png",
  "consulates": [
                 {
                 "city": " Киев",
                 "address": "blah blah",
                 "latitude": 30.00023,
                 "longitude": 50.0024
                 },
                 {
                 "city": " Киев",
                 "address": "blah blah",
                 "latitude": 30.00023,
                 "longitude": 50.0024
                 }
                 ]
  },
  {
  "name": "Эстония",
  "code": "EE",
  "img": "ee.png",
  "consulates": [
                 {
                 "city": " Киев",
                 "address": "blah blah",
                 "latitude": 30.00023,
                 "longitude": 50.0024
                 },
                 {
                 "city": " Киев",
                 "address": "blah blah",
                 "latitude": 30.00023,
                 "longitude": 50.0024
                 }
                 ]
  },
  {
  "name": "Великобритания",
  "code": "GB",
  "img": "gb.png",
  "consulates": [
                 {
                 "city": " Киев",
                 "address": "blah blah",
                 "latitude": 30.00023,
                 "longitude": 50.0024
                 },
                 {
                 "city": " Киев",
                 "address": "blah blah",
                 "latitude": 30.00023,
                 "longitude": 50.0024
                 }
                 ]
  },
  {
  "name": "Бельгия",
  "code": "BE",
  "img": "be.png",
  "consulates": [
                 {
                 "city": " Киев",
                 "address": "blah blah",
                 "latitude": 30.00023,
                 "longitude": 50.0024
                 },
                 {
                 "city": " Киев",
                 "address": "blah blah",
                 "latitude": 30.00023,
                 "longitude": 50.0024
                 }
                 ]
  }
  ]